street;street_type;lat;lon
Каинская улица;жилая улица;55.0188485;82.9255683
улица Революции;жилая улица;55.0295927;82.9087794
Депутатская улица;жилая улица;55.0282244;82.9111121
улица Щетинкина;жилая улица;55.0271664;82.9100448
Сибирская улица;жилая улица;55.0344566;82.9027939
Железнодорожная улица;ул. общегородского значения;55.0476053;82.9089314
улица Дмитрия Шамшурина;ул. районного значения;55.0410129;82.8936025
улица Движенцев;жилая улица;55.0398151;82.892245
Брестская улица;жилая улица;55.0521359;82.926739
улица Бурденко;ул. районного значения;54.9664358;82.9333218
улица Федосеева;ул. районного значения;55.0358809;82.973166
Каменская улица;ул. районного значения;55.0240356;82.929624
Ядринцевская улица;жилая улица;55.0337064;82.9296485
Гурьевская улица;ул. районного значения;55.021149;82.9613202
улица Карла Либкнехта;жилая улица;55.0184785;82.9703563
улица Короленко;жилая улица;55.0156369;82.9674434
Коммунстроевская улица;жилая улица;55.0231492;82.9811103
улица Грибоедова;жилая улица;55.0168861;82.970376
улица Лескова;жилая улица;55.0210243;82.9532114
улица Панфиловцев;улица;55.0196318;82.9894775
улица Чаплыгина;жилая улица;55.0267346;82.9290036
Ленинградская улица;жилая улица;55.0089732;82.9684591
улица Тургенева;жилая улица;55.0215645;82.9463498
Потанинская улица;жилая улица;55.0335886;82.9173768
Радужная улица;жилая улица;55.1347772;82.8778678
Дунайская улица;ул. районного значения;55.0194621;82.9858193
улица Чехова;жилая улица;55.0093449;82.9731594
Московская улица;жилая улица;55.0064649;82.9718907
улица 3 Интернационала;жилая улица;55.0091834;82.95397
улица Толстого;жилая улица;55.0066541;82.9768079
Автогенная улица;жилая улица;55.0061987;82.9667755
Лазурная улица;улица;55.037025;83.0231235
Волочаевская улица;ул. районного значения;55.036384;83.0188783
улица Пархоменко;ул. районного значения;54.9872582;82.8600879
Тихвинская улица;жилая улица;54.979984;82.8675382
Кривощёковская улица;ул. районного значения;55.0159366;82.9286929
Артиллерийская улица;жилая улица;55.0242467;82.9619307
улица Державина;жилая улица;55.0393208;82.9281357
Коммунистическая улица;жилая улица;55.0230706;82.9166074
Бийская улица;жилая улица;54.9765186;82.8239328
улица Халтурина;жилая улица;54.9878044;82.8236936
улица Филатова;жилая улица;54.9879581;82.827365
Фасадная улица;жилая улица;54.9871962;82.8195003
улица Забалуева;ул. районного значения;54.9900322;82.8211992
Танковая улица;магистраль;55.0638727;82.9351433
Туннельный спуск;ул. районного значения;55.0321643;82.8992068
улица Челюскинцев;ул. общегородского значения;55.0371284;82.8988997
Народная улица;жилая улица;55.063044;82.936055
улица Овчукова;улица;55.0893497;82.9678291
улица Кутателадзе;ул. районного значения;54.8579807;83.0986475
улица Мусы Джалиля;улица;54.8603188;83.0959273
Линейная улица;ул. районного значения;54.986833;82.7081955
Степная улица;жилая улица;54.9890592;82.6696392
Гидромонтажная улица;ул. общегородского значения;54.8602199;82.9778723
улица Молодости;улица;54.8598511;82.9696029
улица Шевченко;ул. районного значения;55.0221458;82.9396084
Инская улица;жилая улица;55.011643;82.9321314
улица Мясниковой;ул. районного значения;55.1039271;82.9551034
улица Кочубея;ул. районного значения;55.1077291;82.9572188
улица Краузе;ул. общегородского значения;55.1163713;82.942609
улица Дмитрия Донского;ул. районного значения;55.0619645;82.8928576
Тайгинская улица;ул. общегородского значения;55.1116729;82.9797564
Снегири;пригород;55.108701;82.9690835
Саратовская улица;улица;55.0372699;82.8834997
улица Стофато;жилая улица;55.0328781;82.9800494
улица Журавлёва;жилая улица;55.0299843;82.9796379
Светлая улица;улица;55.0538766;82.9509818
Планировочная улица;жилая улица;54.9954971;82.8800796
Хитровская улица;ул. общегородского значения;54.9916884;82.9919055
Родниковая улица;жилая улица;54.9852595;83.0113312
Выборная улица;улица;55.0078203;83.0558805
улица Связистов;ул. общегородского значения;54.9616652;82.8415023
Волховская улица;ул. общегородского значения;54.9699614;82.8415138
Оборонная улица;ул. районного значения;54.9749762;82.8424936
Колхидская улица;жилая улица;54.9908868;82.8157828
улица Бородина;ул. общегородского значения;54.9367994;82.86934
улица Петровского;жилая улица;54.9315132;82.8659251
улица Аникина;ул. районного значения;54.9664609;82.9500797
Карьермочищенская улица;улица;55.1257744;82.9172493
Русская улица;магистраль;54.8464373;83.0621359
Владимировский спуск;улица;55.0336476;82.8901724
улица Танкистов;жилая улица;54.9757544;82.831918
Днепрогэсовская улица;ул. районного значения;54.9931441;82.982281
улица Демьяна Бедного;жилая улица;55.0485647;82.9361169
Чернышевский спуск;жилая улица;55.0275151;82.8950013
Софийская улица;ул. общегородского значения;54.8388602;82.9298726
Ветлужская улица;ул. районного значения;54.8544189;82.9718071
Школьная улица;ул. районного значения;54.8174518;82.8509214
улица Вахтангова;жилая улица;54.852149;83.0488338
Закарпатская улица;жилая улица;54.8522037;83.0471685
Иноземная улица;жилая улица;54.8524707;83.0492384
улица Тружеников;жилая улица;54.8461893;83.0426756
Золоторожская улица;жилая улица;54.8503277;83.0487156
улица Гидростроителей;проезд;54.8479764;83.0444397
Тихая улица;улица;54.8479255;83.0624069
Бердский санаторий;улица;54.7939341;83.0464883
Оренбургская улица;жилая улица;55.0377295;82.8816839
Тульская улица;жилая улица;54.9637352;82.8696146
Мотодром РОСТО;улица;54.968652;82.8917406
улица Академика Будкера;улица;54.8521862;83.1144424
улица Петкау;жилая улица;55.093987;82.7748051
улица Дубравы;ул. общегородского значения;54.9931521;82.9917418
Сухарная улица;ул. районного значения;55.0465606;82.8731331
Геофизическая улица;жилая улица;55.0387525;82.9983998
улица Суркова;жилая улица;55.0384259;82.9974414
Национальная улица;жилая улица;55.0386152;82.9961336
улица Тимирязева;жилая улица;55.0501111;82.8767857
улица Достоевского;жилая улица;55.0456147;82.9140868
улица Некрасова;жилая улица;55.0464988;82.9345998
Бурлинский переезд;проезд;55.0449945;82.9010996
улица Горбаня;проезд;54.9589838;82.9121432
Ольховская улица;жилая улица;54.9681231;82.9096792
Бетонная улица;жилая улица;54.9614279;82.9211653
Часовая улица;ул. общегородского значения;54.8656525;82.9843861
Барьерная улица;ул. общегородского значения;54.8639605;82.9767219
улица Динамовцев;жилая улица;54.8615572;82.9841227
улица 40 лет Комсомола;жилая улица;54.8590356;82.9815947
улица Бердышева;ул. районного значения;54.8626363;82.9713483
Универсальная улица;жилая улица;54.8636116;82.9729257
улица Печатников;ул. общегородского значения;54.8648755;82.9763918
Пермская улица;ул. районного значения;54.9869245;82.85086
улица Военный городок;проезд;55.0302376;82.9615652
Тюменская улица;ул. районного значения;54.9633803;82.9425872
Томская улица;жилая улица;55.1669621;82.9735485
улица Аэропорт;улица;55.0814588;82.9063791
улица Королёва;жилая улица;55.0494126;82.9706248
Комбинатская улица;жилая улица;55.0520877;82.9750779
Авиационная улица;жилая улица;55.0592829;82.9936123
улица Александра Невского;жилая улица;55.0819834;82.9604236
Ясная улица;жилая улица;55.1255618;82.9719825
Солнечная улица;жилая улица;55.1271319;82.9750821
Совхозная улица;улица;55.1406674;82.961555
Юбилейная улица;жилая улица;55.1355399;82.9720407
Производственная улица;улица;55.1426124;82.9642207
Троицкая улица;жилая улица;55.1463748;82.9172828
улица Электромонтажников;жилая улица;55.1426819;82.9172618
улица Первопроходцев;жилая улица;55.1441417;82.9213553
Баргузинская улица;жилая улица;55.148026;82.9220073
Кубовая улица;улица;55.1311203;82.8891381
Петрозаводская улица;улица;55.126801;82.9061074
Чусовская улица;жилая улица;55.1311866;82.8969278
Кавалерийская улица;жилая улица;55.0569356;82.9176059
Пулемётная улица;жилая улица;55.0558255;82.9395887
Обогатительная улица;жилая улица;54.9666037;82.9521958
улица Саввы Кожевникова;жилая улица;54.970101;82.9565166
Оловозаводская улица;ул. районного значения;54.9589537;82.9461941
Ильменская улица;жилая улица;54.9679844;82.9137941
Чернореченская улица;жилая улица;54.9683253;82.9146924
Симферопольская улица;жилая улица;54.968176;82.9157986
Албазинская улица;жилая улица;54.9679319;82.9128171
Эстонская улица;жилая улица;54.9679747;82.9186576
Таймырская улица;жилая улица;54.9804157;82.9074152
Проектная улица;жилая улица;54.9724174;82.9101478
улица Эйхе;ул. общегородского значения;54.975764;83.0991513
улица Ключ-Камышенское Плато;ул. общегородского значения;54.9915449;83.0508164
улица Воскова;жилая улица;55.0027067;82.9863509
Инженерная улица;улица;54.8549838;83.1126366
Океанская улица;улица;54.8673573;83.0986143
улица Дружбы;жилая улица;54.99005;82.8760549
Декадная улица;жилая улица;54.9674986;82.9025573
Пригородная улица;жилая улица;54.9752204;82.9257485
улица Яковлева;жилая улица;54.9794962;82.9351276
Валдайская улица;жилая улица;54.9780293;82.9336794
Бугринский выселок;жилая улица;54.9736378;82.922055
Космическая улица;жилая улица;54.9864826;82.9019997
улица Олеко Дундича;жилая улица;55.0758071;82.9710014
улица Коминтерна;ул. районного значения;55.0485702;83.0225363
Бульварная улица;жилая улица;54.9759536;82.8638579
Телевизионная улица;жилая улица;54.9741879;82.889686
улица Успенского;жилая улица;54.9697673;82.8841102
Взлётная улица;ул. общегородского значения;54.9863934;83.0445249
Приграничная улица;улица;54.9327061;83.1375756
улица Одоевского;ул. районного значения;54.9249863;83.0767082
улица Вересаева;ул. районного значения;54.9453113;83.1148683
улица Ласточкина;ул. районного значения;54.9511244;83.1149732
улица Нахимова;жилая улица;54.9539216;83.1201083
Пихтовая улица;жилая улица;54.9571229;83.1080489
улица Чапаева;улица;54.9778123;83.0734455
Подольская улица;жилая улица;54.9785787;83.0628893
Столбовая улица;жилая улица;54.9782798;83.0648211
улица Перова;улица;54.9780049;83.056126
Радиаторная улица;улица;54.9798195;83.0688705
улица Шмидта;улица;54.9789563;83.0826282
Физкультурная улица;улица;54.9767544;83.0887184
улица Боровая Партия;жилая улица;54.8110014;83.0939348
улица Громова;жилая улица;54.9388473;82.9091772
Больничная улица;жилая улица;55.0359021;82.7516873
улица Школьная;ул. районного значения;55.0382717;82.7494721
Кедровая улица;жилая улица;55.1714817;82.7668288
улица Путинцева;жилая улица;55.1734825;82.772936
улица Свободы;жилая улица;55.1730469;82.7757172
Вилюйская улица;жилая улица;54.9997858;83.0062191
улица Костычева;жилая улица;54.9842302;82.8757997
Петропавловская улица;жилая улица;54.9725667;82.864313
улица Николая Грицюка;улица;54.9282357;82.8454885
улица Воеводского;жилая улица;54.8316892;83.106066
Журинская улица;жилая улица;55.0365468;82.9303367
улица Кропоткина;жилая улица;55.0537194;82.9137438
улица Фадеева;ул. районного значения;55.0950693;82.9364225
Гвардейский;пригород;55.1573214;82.9568733
Вокзальная улица;ул. районного значения;54.986092;82.7189786
улица Байдукова;жилая улица;54.9867261;82.7172839
улица Гагарина;жилая улица;54.9858114;82.7387906
улица Руставели;жилая улица;54.978933;83.0863266
улица Крамского;жилая улица;55.0242325;82.9871962
улица Костонаева;жилая улица;55.068643;82.9504272
Солнечный;пригород;55.1445322;82.9050406
Суходольная улица;жилая улица;54.9552691;82.8397492
улица Почтовый Лог;жилая улица;55.0454292;83.0058849
Чукотская улица;улица;54.9613264;82.8866239
улица Изыскателей;жилая улица;54.9724207;82.9076066
улица Военная;жилая улица;55.031808;82.9398059
улица Бродского;жилая улица;55.0565207;82.9821182
Пашино;пригород;55.1681428;82.9731372
улица Андрея Рублёва;жилая улица;55.1159077;82.9162099
улица Корнея Чуковского;жилая улица;55.1153762;82.9172988
улица Николая Шипилова;жилая улица;55.1169279;82.9144207
Воскресная улица;жилая улица;54.9432783;83.0080811
улица Надежды;жилая улица;55.02354;82.8119784
улица Декоративный Питомник;жилая улица;55.1128886;82.9234559
Моё Сокровище;грунтовая дорога;54.8081777;83.1856076
улица Светлых Надежд;жилая улица;54.8923033;82.9831143
Лунная улица;жилая улица;54.8947165;82.9843934
Заросший трейл;улица;54.8858726;83.1529482
Атлетическая улица;жилая улица;55.0725924;83.0390038
улица Виктора Звонарёва;жилая улица;55.0711512;83.0404195
улица Павла Кондратенко;жилая улица;55.0707113;83.0415373
Берёзовая роща;пригород;55.0452607;82.9570887
Песчаная улица;жилая улица;55.1262554;82.9554086
улица Михаила Гудкова;жилая улица;54.9863682;82.7809532
Заельцовский бор;улица;55.0935893;82.8515996
Восток;улица;54.8243064;83.1460824
Учебный центр УВД;улица;54.9949652;82.8029297
Бугринская роща;улица;54.9744546;82.9380774
Бердский залив;улица;54.7309748;83.1754638
Спартак;улица;55.0382849;82.9250606
БЦ Citycenter;улица;55.0290932;82.926279
Культура;улица;54.9482208;82.9297773
Генетик;улица;54.8558677;83.1883893
Экспериментатор;улица;54.8681022;83.1730668
Авторынок;улица;54.9452246;82.874162
Стрелочная;улица;54.9681953;83.0661487
Поликлиника;улица;54.9352575;82.9109435
ГУК ПЭТС СО РАХН;улица;54.9105441;82.9836004
Конструкторско-технологический институт;улица;54.8619901;83.0935985
Фаворит;улица;54.8624661;83.0922514
Бригантина;улица;55.0424402;82.9006515
Санаторий 'Ревиталь парк';улица;55.0996091;82.8089589
Инюшенский бор;улица;54.9996594;82.9985448
Путеец;улица;54.8872026;83.039485
Бывшая ТС;улица;54.8605662;83.0995452
Иня;улица;54.9757196;83.0561225
Управление энергетики и водоснабжения;улица;54.8552433;83.1132735
Водопроводная насосная станция;улица;55.0530192;82.8876115
PepsiCo;улица;54.9462791;82.9297181
Колосс;улица;54.9477267;82.9291546
Логотех;улица;54.9461185;82.9237428
МКП ПАТС;улица;54.9477457;82.9253569
ООО Гулливер;улица;54.9450899;82.9257932
Сибирская Пивоварня Хейнекен;улица;54.94281;82.9287321
База НГТС;улица;54.9486996;82.9189564
Гринвиль;улица;54.9489254;82.9126605
Зернопродукт;улица;54.9478674;82.9125139
Спецавтохозяйство;улица;54.9463559;82.9144182
НЗСК;улица;55.0041914;82.8812621
СК Стройэнергоальянс;улица;55.0056026;82.8790965
Котельная;улица;55.0729125;82.8970324
Горводоканал;улица;55.0701108;82.9044072
Центр профессиональной подготовки ГУ МВД РФ;улица;55.0675883;82.9037464
Ростехнадзор;улица;55.0528724;82.8856943
Биатлонный комплекс;улица;55.0532059;83.0387046
Кольцово;town;54.9215434;83.2081326
Бердск;город;54.7437303;83.0966762
Хозяйственные товары;улица;55.041744;82.924942
Быстромолл;улица;54.8603289;83.109171
Газпромнефть;улица;54.9784064;83.0247035
Сибгидромехстрой;улица;54.9498261;82.8599643
Сибирские ресурсы;улица;54.9497019;82.8613284
Администрация Кировского района;улица;54.9412577;82.9009631
ПКиО Бугринская роща;улица;54.9713516;82.9571015
ПКиО 'Берёзовая роща';улица;55.046712;82.9516369
Sagittarius;улица;55.1267967;82.9688857
Дом Актёра;улица;55.0280164;82.924745
остров Кустовой;улица;54.9826997;82.9649916
Клещихинское кладбище;улица;54.9490523;82.8106131
урочище Высотинка;улица;54.9022868;82.643431
Микрорайон;улица;55.0850921;82.6432796
ЖК Седьмое небо;улица;55.0412343;82.9451023
Дивногорский микрорайон;улица;55.0252646;82.8069859
Институт ФСБ;улица;55.0481009;82.9168709
Близкий микрорайон;улица;55.1221397;83.043193
Терминал А (внутренних линий);улица;55.0096971;82.6673567
Veka;улица;55.0746537;82.6781404
Свинокомплекс;улица;55.069891;82.7000527
Алютех;улица;55.0367452;82.7757088
Гаражный комплекс;улица;55.0476548;82.8892568
Бугринский пляж;улица;54.9757825;82.956222
пролив Курья;улица;55.1030687;82.6541413
Озеро Собачье;улица;55.0351824;83.010047
озеро Каинка;улица;54.8708192;83.1365007
Вера;улица;54.8154099;83.1716012
Полянка;улица;54.8074601;83.1784921
Утилизация твердых бытовых отходов;улица;54.8911858;83.1551448
Сибирьбуровод;улица;54.9334912;83.1448342
Ельцовская;улица;55.0644448;82.9026954
Огромка;улица;54.9489561;83.1036034
Прайм;улица;55.0314896;83.0030847
Автобусный отстойник;улица;54.9889287;83.0390538
Насосно-фильтровальная станция №1;улица;54.9519399;82.9856519
микрорайон Фламинго;улица;54.9249766;82.9134015
Жилой комплекс «На Ельцовской»;улица;55.0463972;82.8865304
INFINITY;улица;55.1171571;82.9318629
Онега;улица;55.1151807;82.9303769
НТЖТ;улица;54.9521104;83.1108925
Берёзовое;пригород;54.9378117;83.1067403
Орловка;пригород;54.9490594;83.1634083
Барышево;деревня;54.9610314;83.1787854
Идиллия;улица;55.0525005;82.9042166
ПТОЛ;улица;54.9632348;83.1166269
Orion;улица;54.9508103;82.9390178
квартал Согласия;улица;54.9729239;82.7504395
квартал Королёва;улица;54.9766404;82.762788
квартал Джобса;улица;54.9773773;82.7652999
Первый квартал;улица;54.9818655;83.1463767
Второй квартал;улица;54.9791462;83.1475906
Третий квартал;улица;54.980074;83.1506955
Четвёртый квартал;улица;54.980847;83.1537819
ЖК «Европейский берег»;улица;54.9918587;82.9707611
Пятёрочка;улица;54.9752429;83.0851866
Жилой дом «Виноград»;улица;54.9768062;83.085084
Торговый центр на Ключ-Камышенском плато;улица;54.9894039;83.0391523
Жилой комплекс «На Снежиной»;улица;55.0203568;83.021539
Жилой комплекс 'Гурьевский';улица;55.0254367;82.966375
Жилой комплекс «Дом на Федосеева»;улица;55.0354629;82.9648373
ЖК Каменский;улица;55.0356375;82.9579381
КСМ ТЦ;улица;54.9411384;83.1187745
Снегоплавильная станция;улица;55.0390583;82.9646336
ЖК История;улица;55.0417128;82.9676724
ЖК Золотая Нива;улица;55.0411754;82.9706604
Жилой комплекс «ГринАрт»;улица;55.0497741;82.953209
Жилой комплекс «Островский»;улица;55.0504883;82.9305383
Жилой комплекс «Калининский-3»;улица;55.0614613;82.9390228
Жилой комплекс «Калининский-2»;улица;55.0613487;82.9382535
Жилой комплекс «Дом на Шамшиных»;улица;55.0419883;82.9290583
Дом на Шамшиных;улица;55.041957;82.9290383
Жилой комплекс «Расцветай на Ядринцевской»;улица;55.0342589;82.9309838
Расцветай на Яндрицевской;улица;55.0343521;82.9310234
Жилой комплекс «На Трудовой»;улица;55.0336784;82.9351266
Жилой комплекс «Ядринцевский квартал»;улица;55.03327;82.9303026
Жилой комплекс «Дом на Чаплыгина»;улица;55.027291;82.9320517
Адмирал Ушаков;улица;55.0210611;82.9329264
ЖК На Покатной;улица;55.0265614;82.9474032
Каменка;деревня;55.1083874;83.0615877
микрорайон Гармония;улица;55.0959218;83.0847288
ЖК Столичный;улица;55.0081677;82.9666428
Жилой дом «Революция»;улица;55.0045099;82.9768622
Жилой комплекс 'Квартал На Никитина';улица;55.0068269;82.95569
Урбан-виллы «На Никитина»;улица;55.006851;82.9556477
Жилой комплекс «Михайловский»;улица;55.0040313;82.9417157
Сити-квартал «Инские Холмы»;улица;55.0109457;82.9321347
Жилой комплекс «Покровский»;улица;55.0534421;82.9008181
Жилой комплекс «Заельцовский»;улица;55.054475;82.9021082
Жилой комплекс «Тимирязевский»;улица;55.0553154;82.894515
Бирюзовая жемчужина-2;улица;55.0468495;82.8595473
Жилой комплекс «Бирюзовая жемчужина»;улица;55.0468459;82.857724
SMART;улица;55.1060839;82.9482041
Квартал «Дунаевский»;улица;55.102156;82.9760522
Юбилейный;пригород;55.0982259;82.9674377
МКРН Стрижи;улица;55.1278874;82.8931475
Novosibirsk Dam;улица;54.8498044;82.9874118
Дивногорский;улица;55.0252646;82.8081108
Чистая слобода;пригород;54.9811287;82.7953985
МНТК Микрохирургия глаза им. С.Н.Фёдорова;улица;54.9823711;82.8160276
Тихвинский квартал;улица;54.9800401;82.8692891
Жилой комплекс «Дом на Немировича»;улица;54.9900185;82.9153953
СибУПК;улица;54.9899507;82.9095823
Опти;улица;54.9568602;82.8391235
Жилой комплекс «На Коротаева»;улица;54.9615536;82.9547835
квартал Форда;улица;54.9741874;82.7566495
квартал Сегаловича;улица;54.9717948;82.7521987
Элитный;деревня;54.9173153;82.9353032
Светлый;пригород;55.196096;83.1450252
Мичуринский;деревня;54.8817727;83.0073856
Раздольное;деревня;55.0659197;83.1295315
БЦ Время;улица;55.0176749;82.9401981
СНТ «Солнечная долина»;улица;54.9655919;83.1783799
СНТ «Лесовод»;улица;54.9617065;83.1651325
Тихомиров;улица;55.0247603;82.9488223
ЖК Ричмонд;улица;55.0172953;82.9411845
Поликлиника №1;улица;55.0290267;82.925422
СНТ «Буревестник»;улица;54.858802;82.9333961
микрорайон Околица;улица;55.1184217;82.9480889
Жилой комплекс «Одоевский»;улица;54.9325129;83.1056
Северо-Чемской;пригород;54.9626493;82.9512572
Жилой комплекс «Кварталы Немировича»;улица;54.9792649;82.9112411
Базилик;улица;54.9187613;82.9974543
Изумрудный город;улица;55.0456481;82.985668
Первый на Есенина;улица;55.0469128;82.9846857
Цветной бульвар;улица;54.944074;82.9020144
Салют;улица;54.9821237;82.8613257
Апартвиль на Кошурникова;улица;55.0398881;82.9668921
Воздушная гавань;улица;54.991499;82.6804195
улица Лелюха;жилая улица;54.7649692;83.1021655
Путеводная улица;жилая улица;54.8324375;83.2725018
улица Рогачёва;ул. районного значения;54.7540374;83.0599151
улица Островского;ул. районного значения;54.7601955;83.0903704
Королевская улица;жилая улица;54.9328117;82.5906768
Континентовская улица;жилая улица;54.9388113;82.5784382
Бердская улица;жилая улица;54.7550334;83.0703511
улица Пугачёва;жилая улица;54.7541874;83.1000867
улица Мусоргского;жилая улица;54.746903;83.1048952
Искитимская улица;жилая улица;54.7546076;83.0691496
Водосточная улица;жилая улица;54.7549049;83.0749731
улица Пастухова;жилая улица;54.7578839;83.0670683
улица Чернышевского;жилая улица;54.758704;83.0901796
Огнеупорная улица;проезд;54.7720418;83.0939991
Химзаводская улица;улица;54.7404703;83.1319936
Ореховая улица;жилая улица;54.7369763;83.1653913
Ольховая улица;жилая улица;54.7372042;83.1740704
улица Крупской;жилая улица;54.9638963;83.1955297
улица Колчина;жилая улица;55.0971274;82.6415162
улица Частикина;жилая улица;55.0957104;82.6431631
Кудряшовская улица;жилая улица;55.0956903;82.6399402
улица Чернышова;жилая улица;55.0941339;82.6354736
Камышовая улица;жилая улица;55.0926335;82.6452346
Чалдонская улица;жилая улица;55.097358;82.6482951
улица Сибирская;улица;55.0654719;83.2272652
Сахалинская Улица;проезд;55.2533418;82.8826397
Хабаровская Улица;проезд;55.2526205;82.8819131
Волгоградская Улица;проезд;55.2497716;82.8817681
улица Черёмушный лог;жилая улица;55.255985;82.9169193
Девяткина Улица;проезд;55.2493034;82.8732611
улица Заячий Хутор;жилая улица;55.2072493;83.2306946
Барышево - Кольцово;ул. общегородского значения;54.9520711;83.1919615
танковая колея;грунтовая дорога;54.8860997;83.2319825
Восходная улица;жилая улица;54.9484963;83.2105271
Векторная улица;жилая улица;54.9473658;83.2084275
Барнаульская улица;магистраль;54.7519076;83.1429172
улица Резина;жилая улица;54.7525591;83.0983447
Водобачная улица;ул. районного значения;54.7685905;83.0979201
Аэродромная улица;жилая улица;54.744955;83.1018848
улица Л.Чайкиной;жилая улица;54.7551499;83.1111598
улица Химиков;жилая улица;54.794309;83.18911
На электричку;тропинка;54.9495872;83.1892237
Жаворонков;проезд;54.833971;83.2426322
Полесье;проезд;54.8347925;83.2438231
улица Огородников;проезд;54.8349961;83.2488628
Лесостепная улица;проезд;54.8338454;83.2435361
Оазис;проезд;54.8370435;83.2473431
Ветвистая улица;проезд;54.8369556;83.2491734
Запрудная улица;проезд;54.835693;83.2471086
Плодородная улица;проезд;54.8361701;83.2478193
Добрососедская улица;проезд;54.8352669;83.246518
Мелисса;проезд;54.8320346;83.2447116
Небесная улица;жилая зона;54.8427812;83.2589942
Журавлиная улица;жилая улица;54.746318;83.0786978
улица Великороссов;жилая улица;54.711956;83.0833002
улица Тьюринга;жилая зона;54.8433676;83.1815091
улица Авиаторов;жилая улица;54.7432686;83.0994854
улица Барлакская;жилая улица;55.2658833;82.9086126
улица Первых Коммунаров;ул. районного значения;54.7019176;82.5496392
Кристальная улица;жилая улица;54.7335528;83.071622
Здоровая улица;проезд;55.2509222;82.9732996
Купеческая улица;жилая улица;55.2487872;82.9792304
Свободная улица;проезд;55.2503108;82.9836256
улица Солнечная Поляна;жилая улица;54.9326534;83.1958902
Дубравная улица;жилая улица;54.9303553;83.1847375
улица Подгорбунского;жилая улица;54.8103898;82.600566
Творческая улица;жилая зона;54.8386162;83.2561916
улица Радужный микрорайон;проезд;54.7666356;83.0792402
Заповедная улица;жилая улица;54.735547;83.1773787
улица Купца Горохова;жилая улица;54.7386022;83.0705365
Тропа через кладбище;тропинка;54.9546864;83.1874314
улица Соколовского;жилая улица;54.9399349;82.5777198
улица Якимовых;проезд;54.9878209;83.2770256
Песчанная улица;жилая улица;55.1002822;82.58743
Крутоярная улица;проезд;54.9866967;83.1842511
Въездная улица;жилая улица;55.2244563;82.8436484
Ветеран;жилая улица;55.2197121;82.8440818
Жигулёвская улица;проезд;55.2018937;82.8110965
Просёлок/лыжня;грунтовая дорога;54.8251432;83.2302057
улица Панфилова;проезд;54.7543861;83.1129396
Танковый трек;грунтовая дорога;54.8968919;83.2088883
Снегирей;проезд;54.83479;83.2458447
улица Бердского спецназа;жилая улица;54.7467053;83.0803001
улица поэта Сорокина;жилая улица;54.7402939;83.0731263
Салаирская улица;жилая улица;54.7353085;83.0674444
Благодарная улица;жилая улица;54.7160789;83.0741501
улица Возрождения;жилая улица;55.2808633;82.6747993
улица Коммунаров;жилая улица;55.2815577;82.6736064
Мост влюблённых;пешеходная дорожка;54.9464278;83.1992323
улица А. Шкулова;жилая улица;54.7149527;83.0572727
Александровская улица;проезд;54.7083265;83.229192
Трейл от квадрациклов;тропинка;54.8192118;83.2170672
Коттеджная улица;проезд;54.8323313;83.2476262
Задорожная улица;проезд;54.8371776;83.2500199
Вечерняя улица;жилая улица;55.2188743;82.8406573
улица Охотный ряд;жилая улица;55.2150838;82.8372648
улица Солнечная;жилая улица;55.2435912;82.8654599
улица В. Чкалова;жилая улица;54.7123773;83.0625648
улица Г. Титова;жилая улица;54.7155114;83.056248
Преображенская улица;ул. районного значения;54.9412788;83.2035451
Шампанская улица;жилая улица;55.2028543;82.8088455
Коньячная улица;проезд;55.2014804;82.8105694
Доп лыжня;пешеходная дорожка;54.9488713;83.1874197
Племзаводскакя улица;жилая улица;54.9630811;83.1942748
Орлиная улица;жилая улица;54.9282853;83.1995012
Тропинка к Забобурихе;тропинка;54.9465335;83.199225
Грибная улийа;жилая улица;54.9650366;83.2687902
Цветная Улица;проезд;55.2496572;82.8747963
Кедровый Берег Улица;улица;55.2749867;82.8830865
Ярославская Улица;проезд;55.2476999;82.8847902
улица Сватухина;ул. районного значения;55.0157119;82.4695609
улица Соловьёва;жилая улица;55.3021087;82.7362065
улица Овчинникова;жилая улица;55.3066026;82.7552584
Колывань — Южино;ул. районного значения;55.4020935;82.6230378
<== Жеребцово-Мотково ==>;грунтовая дорога;55.1406727;83.458484
улица Зибарева;жилая улица;55.0053671;82.4692393
Политотдельская улица;улица;55.0114159;82.4586767
нет движения;улица;55.3105362;83.175617
улица Коротеева;жилая улица;54.6376834;83.3075861
улица Чайкиной;ул. районного значения;54.6467447;83.3069322
Цементная улица;улица;54.650364;83.2886043
Семипалатинская улица;улица;54.6461728;83.310059
Канатная улица;ул. районного значения;54.6397937;83.3211155
улица Космодемьянской;жилая улица;54.6556398;83.2939835
улица Кошевого;жилая улица;54.6559229;83.2918591
улица Лесосплава;жилая улица;54.635526;83.3116139
Крутая улица;жилая улица;54.6464578;83.3289415
Элеваторная улица;жилая улица;54.6455796;83.2887414
улица Авроры;жилая улица;54.640119;83.2900886
Уклонная улица;жилая улица;54.635297;83.2809352
Тепличная улица;жилая улица;54.6516544;83.2751832
улица Клары Цеткин;жилая улица;54.6621348;83.3242247
Карьерная улица;жилая улица;54.6497586;83.3249266
Карьер цемзавода;жилая улица;54.6540014;83.3296213
улица Ворошилова;жилая улица;55.3108934;82.7437714
улица Фёдорова;жилая улица;54.7148501;83.2897361
Логовская улица;жилая улица;54.6333626;83.3003401
улица Кузнецова;жилая улица;55.2990855;82.7257273
улица Сибкомбайн;жилая улица;55.3004914;82.7565651
Ремесленная улица;жилая улица;55.3081358;82.7585802
улица Заводской Спуск;жилая улица;55.3115836;82.7609133
Автомобильный мост;ул. районного значения;54.6792592;83.2292656
Мост;пешеходная дорожка;54.9854877;83.3017766
Правобережная улица;жилая улица;54.6586667;83.3224971
улица Логовая;жилая улица;54.6320858;82.8279391
Пляжная улица;проезд;54.9895227;83.3005218
Рыболовная улица;проезд;54.9888755;83.2998196
Грибная улица;проезд;54.9910261;83.3001426
улица Блекотова;жилая улица;54.9982664;83.3361139
улица Целинстрой;жилая улица;55.2150331;83.3400984
улица Мурашкина;жилая улица;55.2185864;83.3383376
Граничная улица;проезд;54.9929061;83.3009292
Первоцветная улица;проезд;55.0252393;83.3385211
Элитная улица;улица;54.6608069;83.2491331
улица Г. Гололобовой;проезд;55.3134661;82.7594084
Песочная улица;жилая улица;55.3258418;82.8624999
улица Правый берег Бибихи;жилая улица;55.3267834;82.8640216
улица Ноздрюхина;жилая улица;55.3225872;82.738566
Мостик через Волчиху;пешеходная дорожка;54.8640769;83.3552577
заповедник клещей;грунтовая дорога;54.9744103;83.3322485
Полесадная улица;проезд;55.0268975;83.34468
Грибная;жилая улица;54.9917886;83.3079498
Есенина улица;жилая улица;54.710836;83.296948
Молодежная улица;жилая улица;54.9744737;82.4916586
улица Приозерная;жилая улица;54.8973123;82.5201623
улица Объездная;жилая улица;54.9005842;82.4970954
улица Тихая;жилая улица;54.8928017;82.5120972
улица Шолохова;жилая улица;54.9952627;82.4316795
Равнинная улица;жилая улица;54.6318517;83.2910991
Украинская улица;жилая улица;54.6201368;83.2926053
Легостаевская улица;жилая улица;54.6229383;83.3192365
Неглинная улица;жилая улица;54.6293874;83.2898478
Низинная улица;жилая улица;54.6308433;83.2925125
улица Потапова;жилая улица;54.9899441;82.433885
Прорабская улица;ул. районного значения;54.5995056;83.3130513
Тополинная улица;жилая улица;54.9604083;83.3726054
Молдавская;жилая улица;54.610665;83.296013
Рыбачья улица;жилая улица;55.4008367;82.8215354
Угольная улица;жилая улица;55.3984195;82.8185163
Полеводская улица;жилая улица;55.4057963;83.1991125
земляная насыпь с бревнами;грунтовая дорога;54.8642813;83.4241066
Лесорубная улица;грунтовая дорога;54.6236165;83.4348525
Калумба улица;жилая улица;54.6263297;82.3857756
Ливингстона улица;жилая улица;54.6258464;82.3866012
Мореходная улица;жилая улица;54.6250794;82.3872099
Парусная улица;жилая улица;54.624479;82.3878576
Фригата бульвар;жилая улица;54.6264238;82.3878539
околорельсовая;улица;55.0028868;82.3216263
Брод;улица;54.8628205;83.436402
улица Дружная;проезд;54.6045375;83.2806724
улица Искитимская;проезд;54.5839098;83.3232713
улица Ложковская;проезд;54.5843658;83.3246622
улица Семипалатинская;проезд;54.5863173;83.3216953
улица Бердская;проезд;54.5864471;83.3223169
улица Вишневая;проезд;54.5819738;83.3163391
улица Уклонная;проезд;54.5854612;83.3146549
улица Дорожная;проезд;54.5863214;83.3141647
Калининская улица;улица;54.8752621;83.5093774
Обской — Ташара;ул. районного значения;55.4886125;83.4605371
Сенная улица;улица;54.5158771;83.3429368
Кисeлёвская улица;жилая улица;54.5036214;83.4255463
Известковая улица;жилая улица;54.4917491;83.4214506
Газовая улица;ул. районного значения;54.8640312;83.50542
улица Будённого;жилая улица;54.5046511;83.3379117
Мятная улица;проезд;54.5323176;83.3714061
улица М. Баркова;жилая улица;55.0666436;83.463052
улица Страхова;улица;54.5048118;83.3418242
Мраморная улица;жилая улица;54.8774515;83.5030044
Камфорная;жилая улица;55.41953;83.1989238
Лодочная улица;жилая улица;55.4138887;82.8304475
Стадионная улица;проезд;55.4138347;83.1967101
улица Хутор;жилая улица;55.4206557;83.4777985
по границе поля;грунтовая дорога;54.5280628;82.8832592
переход через овраг с ручьем;грунтовая дорога;54.544632;82.8354448
пешая тропа;тропинка;54.4847016;82.7412231
поврежденная насыпь;грунтовая дорога;54.5447055;82.8353929
Донская улица;ул. районного значения;54.8266299;82.2954029
едва видна колея;грунтовая дорога;54.5009828;82.7884341
кусты и крапива;тропинка;54.7721033;83.4872085
улица Березовая;проезд;54.5455012;83.3466295
улица Цветочная;проезд;54.5477568;83.3539506
улица Яблоневая;проезд;54.5470026;83.3530181
улица Клубничная;проезд;54.5464642;83.3503893
улица Ясная;проезд;54.5479172;83.3566787
улица Тенистая;проезд;54.5512801;83.3344925
улица Пляжная;проезд;54.552368;83.334216
улица Светлая;проезд;54.5530443;83.3342957
улица Виноградная;проезд;54.5559264;83.3349182
улица Ягодная;проезд;54.5574101;83.3355735
Молодежная;жилая улица;55.2960902;82.2921381
Кузнецкая улица;жилая улица;55.0246994;82.1958781
улица Культурная;ул. районного значения;55.0062213;82.1890447
Листвянская улица;жилая улица;54.4570195;83.3760314
Банковская улица;жилая улица;55.0206345;82.2117445
улица Николая Бровина;жилая улица;55.0229165;82.2006657
улица Красикова;жилая улица;54.4545282;82.1613996
Механизаторская улица;жилая улица;55.2963;83.5957786
Тальменская улица;жилая улица;54.4203595;83.3248602
Дубровинская улица;жилая улица;55.3089317;83.6184728
улица Дорожников;жилая улица;55.0147256;82.2206805
Умрева — острог;улица;55.5611827;83.6092359
улица Пичугина;жилая улица;55.5166278;82.9181519
улица Н.И. Шнырева;жилая улица;55.3104749;83.6039842
улица Геологов;улица;54.4429613;83.4659784
улица Агрогородок;жилая улица;54.5650929;82.2483062
улица Чекина;жилая улица;54.5716508;82.2402258
улица Щербакова;жилая улица;55.0160182;82.2225948
Учительская;жилая улица;55.5931728;83.0269876
Мошково — Кайлы;ул. районного значения;55.2801396;83.7308711
Мошково — Сарапулка;ул. районного значения;55.228568;83.6639801
Кандыковская улица;жилая улица;55.5399543;82.9399575
улица Черёмушки;жилая улица;55.5191442;82.9183685
К живописной стоянке на высоком берегу;грунтовая дорога;54.4417654;82.3994993
Кедровая;жилая улица;55.5119004;83.1337085
Гороховская;жилая улица;55.5099168;83.1330702
улица Кандикова;ул. общегородского значения;54.5771986;82.2249465
Заорская улица;жилая улица;55.1306216;83.5725067
заросшая тропа по кромке поля;грунтовая дорога;54.4603247;82.9407969
переход через русло ручья;грунтовая дорога;54.4629818;82.9461985
обход границ карьера;грунтовая дорога;54.5630572;83.6207366
Бремсберговая улица;жилая улица;54.4446408;83.4839771
Шипунихинская улица;жилая улица;54.4356737;83.4862857
Чистяковская улица;жилая улица;54.4381002;83.4928918
Ключевская улица;жилая улица;54.4375875;83.4912064
Ситовская улица;жилая улица;54.3994341;83.5475194
улица Шатохина;жилая улица;54.4047657;83.5554423
улица Боровая;проезд;55.5982632;83.2801846
Шагаловская улица;жилая улица;54.910197;82.2227851
Грязевой перевал;улица;55.0047237;82.2480619
Тропа к Умревинскому острогу;тропинка;55.5745982;83.5953978
улица Граничная;улица;54.4384917;83.4843864
Тополевый_1;улица;54.4580371;82.1518868
улица Ванеева;жилая улица;55.5080691;83.4452121
Прощальная улица;проезд;54.8781827;82.1581329
Чилино — Батурино;ул. районного значения;55.7264965;83.5459481
Чиковская улица;ул. районного значения;54.5633743;82.110664
улица Спирякова;жилая улица;54.2315933;83.3660743
улица Цыцаркина;ул. общегородского значения;54.2245587;83.3877229
улица Бубенчикова;жилая улица;54.2302938;83.3626891
улица Розы Люксембург;жилая улица;54.2286971;83.3639841
Интернациональная улица;ул. районного значения;54.2298706;83.3739768
улица Станционная;жилая улица;55.0471084;81.9344217
улица Переездная;жилая улица;55.0409916;81.9438077
Культурная улица;жилая улица;54.943687;82.0799334
Комиссаровская улица;жилая улица;54.2262136;83.3689502
улица Д. Бедного;жилая улица;54.2360291;83.3727978
улица Переезд;проезд;54.2211767;83.375164
улица Байдуги;жилая улица;54.3728419;81.9046668
улица Одарича;жилая улица;54.2185924;83.369586
Привокзальная улица;жилая улица;55.1454003;83.7666932
Залинейная улица;жилая улица;54.2963507;83.3248986
Льнозаводской пешеходный мост;пешеходная дорожка;55.1512338;83.8007844
Сионская улица;жилая улица;55.0282026;83.7820738
Пристанская улица;улица;54.3639747;81.9253372
улица Юных Ленинцев;проезд;54.3665553;81.8920614
улица Шаболдина;проезд;54.36183;81.8931824
Водостроевская улица;жилая улица;54.3510341;81.8654591
улица Сельская;жилая улица;55.0474787;81.9453879
улица Революционеров;жилая улица;55.6793332;83.1917262
улица Соловьева;жилая улица;55.6763179;83.2005722
Пятилетская улица;жилая улица;54.2392646;83.328976
улица Льнозавод;жилая улица;54.6433842;83.7820859
Укропская улица;жилая улица;54.8526727;83.9532095
Ордынское-Луковка;ул. районного значения;54.3785761;81.8083759
улица Шилова;жилая улица;54.5393189;81.8925267
Болотное — Кругликово;ул. районного значения;55.8261639;83.9214441
Прямское-Барсуково;грунтовая дорога;54.3619891;83.8888851
улица Народная;жилая улица;54.3033332;82.7369969
улица Семилетка;жилая улица;55.4733423;83.8762574
улица Специалистов;жилая улица;55.4674464;83.8736972
Легостаево;грунтовая дорога;54.4803282;83.7956957
улица Ильиных;жилая улица;54.3176442;81.9036465
Участок Сибирского тракта Овчинниково-Крутологово;грунтовая дорога;55.2986892;82.055042
улица Князева;жилая улица;54.8525538;83.9469079
Красковская;жилая улица;54.4408734;83.9781038
улица Крестьянский двор;проезд;55.5159794;83.868472
Тайговская улица;жилая улица;54.6364994;83.9727873
Огоньковая улица;жилая улица;55.1414144;83.7172323
Актёрская улица;жилая улица;55.1489101;83.7442233
Мельниково — Кожевниково — Изовка;главная улица;55.8071;83.5249269
улица Светлая Поляна;жилая улица;54.2678331;83.8386746
Талицкая;проезд;54.4410173;83.968727
Милицейская улица;жилая улица;54.6379304;83.8207928
улица Анцупова;жилая улица;54.6428423;81.9328031
улица Стрижака;жилая улица;54.6444788;81.936183
улица Молокова;жилая улица;54.6444979;81.9295749
улица Зырянка;жилая улица;54.7704434;83.8617451
Торговая;жилая улица;54.3048555;82.9090251
Совхозная;жилая улица;54.2903675;82.8999196
Зарипова;жилая улица;55.6670185;83.4726785
Ояшинская улица;жилая улица;55.7123559;83.706595
улица Нефтебаза;ул. районного значения;54.2939018;83.3318564
Станционно-Ояшинский — Кайлы;ул. районного значения;55.4161724;83.9576574
улица Медведева;жилая улица;54.3646113;81.8564577
улица Кузбасс;жилая улица;54.3716957;81.9402464
грунтовый выезд;грунтовая дорога;54.6068065;82.0418942
Медведское;грунтовая дорога;54.4774005;83.7961045
Кинтереп;грунтовая дорога;54.4790948;83.7996924
Гусельниково;грунтовая дорога;54.4776342;83.7903253
Говорухина улица;жилая улица;54.4116875;82.0285207
Высота - Томилово;грунтовая дорога;55.1947819;83.8212908
улица Говорухина;ул. районного значения;54.4133288;82.0365349
Подъездной путь до кладбища;жилая улица;54.3151604;83.8600748
Байдуги улица;жилая улица;54.3723298;81.9072723
улица Кооперативная;улица;54.2681898;82.5304356
въезд в д.Березовка;грунтовая дорога;54.6045817;82.0548193
улица Таежная;жилая улица;55.6679898;83.1957553
сезонная;грунтовая дорога;54.6156057;81.9077325
плотина голодный карп;грунтовая дорога;54.7860087;81.9284323
медвежья колея;грунтовая дорога;54.4811189;83.814805
улица Железнодорожная;жилая улица;55.0438016;81.9326054
